{"fullgameschedule":{"lastUpdatedOn":"2017-05-30 8:49:55 AM","gameentry":[{"id":"38718","date":"2017-05-30","time":"6:10PM","awayTeam":{"ID":"125","City":"Oakland","Name":"Athletics","Abbreviation":"OAK"},"homeTeam":{"ID":"116","City":"Cleveland","Name":"Indians","Abbreviation":"CLE"},"location":"Progressive Field"},{"id":"37840","date":"2017-05-30","time":"7:05PM","awayTeam":{"ID":"140","City":"Arizona","Name":"Diamondbacks","Abbreviation":"ARI"},"homeTeam":{"ID":"132","City":"Pittsburgh","Name":"Pirates","Abbreviation":"PIT"},"location":"PNC Park"},{"id":"38153","date":"2017-05-30","time":"7:05PM","awayTeam":{"ID":"114","City":"New York","Name":"Yankees","Abbreviation":"NYY"},"homeTeam":{"ID":"111","City":"Baltimore","Name":"Orioles","Abbreviation":"BAL"},"location":"Oriole Park at Camden Yards"},{"id":"39489","date":"2017-05-30","time":"7:05PM","awayTeam":{"ID":"137","City":"Los Angeles","Name":"Dodgers","Abbreviation":"LAD"},"homeTeam":{"ID":"133","City":"St. Louis","Name":"Cardinals","Abbreviation":"STL"},"location":"Busch Stadium"},{"id":"38591","date":"2017-05-30","time":"7:07PM","awayTeam":{"ID":"135","City":"Cincinnati","Name":"Reds","Abbreviation":"CIN"},"homeTeam":{"ID":"112","City":"Toronto","Name":"Blue Jays","Abbreviation":"TOR"},"location":"Rogers Centre"},{"id":"38855","date":"2017-05-30","time":"7:10PM","awayTeam":{"ID":"123","City":"Seattle","Name":"Mariners","Abbreviation":"SEA"},"homeTeam":{"ID":"138","City":"Colorado","Name":"Rockies","Abbreviation":"COL"},"location":"Coors Field"},{"id":"39581","date":"2017-05-30","time":"7:10PM","awayTeam":{"ID":"129","City":"Philadelphia","Name":"Phillies","Abbreviation":"PHI"},"homeTeam":{"ID":"128","City":"Miami","Name":"Marlins","Abbreviation":"MIA"},"location":"Marlins Park"},{"id":"39672","date":"2017-05-30","time":"7:10PM","awayTeam":{"ID":"134","City":"Milwaukee","Name":"Brewers","Abbreviation":"MIL"},"homeTeam":{"ID":"127","City":"New York","Name":"Mets","Abbreviation":"NYM"},"location":"Citi Field"},{"id":"40184","date":"2017-05-30","time":"8:05PM","awayTeam":{"ID":"115","City":"Tampa Bay","Name":"Rays","Abbreviation":"TB"},"homeTeam":{"ID":"121","City":"Texas","Name":"Rangers","Abbreviation":"TEX"},"location":"Globe Life Park"},{"id":"38306","date":"2017-05-30","time":"8:10PM","awayTeam":{"ID":"113","City":"Boston","Name":"Red Sox","Abbreviation":"BOS"},"homeTeam":{"ID":"119","City":"Chicago","Name":"White Sox","Abbreviation":"CWS"},"location":"Guaranteed Rate Field"},{"id":"39192","date":"2017-05-30","time":"8:10PM","awayTeam":{"ID":"122","City":"Houston","Name":"Astros","Abbreviation":"HOU"},"homeTeam":{"ID":"120","City":"Minnesota","Name":"Twins","Abbreviation":"MIN"},"location":"Target Field"},{"id":"39079","date":"2017-05-30","time":"8:15PM","awayTeam":{"ID":"117","City":"Detroit","Name":"Tigers","Abbreviation":"DET"},"homeTeam":{"ID":"118","City":"Kansas City","Name":"Royals","Abbreviation":"KC"},"location":"Kauffman Stadium"},{"id":"37999","date":"2017-05-30","time":"10:07PM","awayTeam":{"ID":"130","City":"Atlanta","Name":"Braves","Abbreviation":"ATL"},"homeTeam":{"ID":"124","City":"Los Angeles","Name":"Angels","Abbreviation":"LAA"},"location":"Angel Stadium of Anaheim"},{"id":"38454","date":"2017-05-30","time":"10:10PM","awayTeam":{"ID":"131","City":"Chicago","Name":"Cubs","Abbreviation":"CHC"},"homeTeam":{"ID":"139","City":"San Diego","Name":"Padres","Abbreviation":"SD"},"location":"Petco Park"},{"id":"40152","date":"2017-05-30","time":"10:15PM","awayTeam":{"ID":"126","City":"Washington","Name":"Nationals","Abbreviation":"WAS"},"homeTeam":{"ID":"136","City":"San Francisco","Name":"Giants","Abbreviation":"SF"},"location":"AT&T Park"},{"id":"37841","date":"2017-05-31","time":"12:35PM","awayTeam":{"ID":"140","City":"Arizona","Name":"Diamondbacks","Abbreviation":"ARI"},"homeTeam":{"ID":"132","City":"Pittsburgh","Name":"Pirates","Abbreviation":"PIT"},"location":"PNC Park"},{"id":"38592","date":"2017-05-31","time":"12:37PM","awayTeam":{"ID":"135","City":"Cincinnati","Name":"Reds","Abbreviation":"CIN"},"homeTeam":{"ID":"112","City":"Toronto","Name":"Blue Jays","Abbreviation":"TOR"},"location":"Rogers Centre"},{"id":"39193","date":"2017-05-31","time":"1:10PM","awayTeam":{"ID":"122","City":"Houston","Name":"Astros","Abbreviation":"HOU"},"homeTeam":{"ID":"120","City":"Minnesota","Name":"Twins","Abbreviation":"MIN"},"location":"Target Field"},{"id":"39582","date":"2017-05-31","time":"1:10PM","awayTeam":{"ID":"129","City":"Philadelphia","Name":"Phillies","Abbreviation":"PHI"},"homeTeam":{"ID":"128","City":"Miami","Name":"Marlins","Abbreviation":"MIA"},"location":"Marlins Park"},{"id":"38455","date":"2017-05-31","time":"3:40PM","awayTeam":{"ID":"131","City":"Chicago","Name":"Cubs","Abbreviation":"CHC"},"homeTeam":{"ID":"139","City":"San Diego","Name":"Padres","Abbreviation":"SD"},"location":"Petco Park"},{"id":"38719","date":"2017-05-31","time":"6:10PM","awayTeam":{"ID":"125","City":"Oakland","Name":"Athletics","Abbreviation":"OAK"},"homeTeam":{"ID":"116","City":"Cleveland","Name":"Indians","Abbreviation":"CLE"},"location":"Progressive Field"},{"id":"38154","date":"2017-05-31","time":"7:05PM","awayTeam":{"ID":"114","City":"New York","Name":"Yankees","Abbreviation":"NYY"},"homeTeam":{"ID":"111","City":"Baltimore","Name":"Orioles","Abbreviation":"BAL"},"location":"Oriole Park at Camden Yards"},{"id":"39673","date":"2017-05-31","time":"7:10PM","awayTeam":{"ID":"134","City":"Milwaukee","Name":"Brewers","Abbreviation":"MIL"},"homeTeam":{"ID":"127","City":"New York","Name":"Mets","Abbreviation":"NYM"},"location":"Citi Field"},{"id":"40185","date":"2017-05-31","time":"8:05PM","awayTeam":{"ID":"115","City":"Tampa Bay","Name":"Rays","Abbreviation":"TB"},"homeTeam":{"ID":"121","City":"Texas","Name":"Rangers","Abbreviation":"TEX"},"location":"Globe Life Park"},{"id":"38307","date":"2017-05-31","time":"8:10PM","awayTeam":{"ID":"113","City":"Boston","Name":"Red Sox","Abbreviation":"BOS"},"homeTeam":{"ID":"119","City":"Chicago","Name":"White Sox","Abbreviation":"CWS"},"location":"Guaranteed Rate Field"},{"id":"39080","date":"2017-05-31","time":"8:15PM","awayTeam":{"ID":"117","City":"Detroit","Name":"Tigers","Abbreviation":"DET"},"homeTeam":{"ID":"118","City":"Kansas City","Name":"Royals","Abbreviation":"KC"},"location":"Kauffman Stadium"},{"id":"39490","date":"2017-05-31","time":"8:15PM","awayTeam":{"ID":"137","City":"Los Angeles","Name":"Dodgers","Abbreviation":"LAD"},"homeTeam":{"ID":"133","City":"St. Louis","Name":"Cardinals","Abbreviation":"STL"},"location":"Busch Stadium"},{"id":"38000","date":"2017-05-31","time":"10:07PM","awayTeam":{"ID":"130","City":"Atlanta","Name":"Braves","Abbreviation":"ATL"},"homeTeam":{"ID":"124","City":"Los Angeles","Name":"Angels","Abbreviation":"LAA"},"location":"Angel Stadium of Anaheim"},{"id":"38856","date":"2017-05-31","time":"10:10PM","awayTeam":{"ID":"138","City":"Colorado","Name":"Rockies","Abbreviation":"COL"},"homeTeam":{"ID":"123","City":"Seattle","Name":"Mariners","Abbreviation":"SEA"},"location":"Safeco Field"},{"id":"40153","date":"2017-05-31","time":"10:15PM","awayTeam":{"ID":"126","City":"Washington","Name":"Nationals","Abbreviation":"WAS"},"homeTeam":{"ID":"136","City":"San Francisco","Name":"Giants","Abbreviation":"SF"},"location":"AT&T Park"},{"id":"38720","date":"2017-06-01","time":"12:10PM","awayTeam":{"ID":"125","City":"Oakland","Name":"Athletics","Abbreviation":"OAK"},"homeTeam":{"ID":"116","City":"Cleveland","Name":"Indians","Abbreviation":"CLE"},"location":"Progressive Field"},{"id":"39674","date":"2017-06-01","time":"1:10PM","awayTeam":{"ID":"134","City":"Milwaukee","Name":"Brewers","Abbreviation":"MIL"},"homeTeam":{"ID":"127","City":"New York","Name":"Mets","Abbreviation":"NYM"},"location":"Citi Field"},{"id":"39491","date":"2017-06-01","time":"1:45PM","awayTeam":{"ID":"137","City":"Los Angeles","Name":"Dodgers","Abbreviation":"LAD"},"homeTeam":{"ID":"133","City":"St. Louis","Name":"Cardinals","Abbreviation":"STL"},"location":"Busch Stadium"},{"id":"38857","date":"2017-06-01","time":"3:40PM","awayTeam":{"ID":"138","City":"Colorado","Name":"Rockies","Abbreviation":"COL"},"homeTeam":{"ID":"123","City":"Seattle","Name":"Mariners","Abbreviation":"SEA"},"location":"Safeco Field"},{"id":"38155","date":"2017-06-01","time":"7:05PM","awayTeam":{"ID":"113","City":"Boston","Name":"Red Sox","Abbreviation":"BOS"},"homeTeam":{"ID":"111","City":"Baltimore","Name":"Orioles","Abbreviation":"BAL"},"location":"Oriole Park at Camden Yards"},{"id":"39878","date":"2017-06-01","time":"7:07PM","awayTeam":{"ID":"114","City":"New York","Name":"Yankees","Abbreviation":"NYY"},"homeTeam":{"ID":"112","City":"Toronto","Name":"Blue Jays","Abbreviation":"TOR"},"location":"Rogers Centre"},{"id":"37842","date":"2017-06-01","time":"7:10PM","awayTeam":{"ID":"140","City":"Arizona","Name":"Diamondbacks","Abbreviation":"ARI"},"homeTeam":{"ID":"128","City":"Miami","Name":"Marlins","Abbreviation":"MIA"},"location":"Marlins Park"},{"id":"39394","date":"2017-06-01","time":"10:07PM","awayTeam":{"ID":"120","City":"Minnesota","Name":"Twins","Abbreviation":"MIN"},"homeTeam":{"ID":"124","City":"Los Angeles","Name":"Angels","Abbreviation":"LAA"},"location":"Angel Stadium of Anaheim"},{"id":"38456","date":"2017-06-02","time":"2:20PM","awayTeam":{"ID":"133","City":"St. Louis","Name":"Cardinals","Abbreviation":"STL"},"homeTeam":{"ID":"131","City":"Chicago","Name":"Cubs","Abbreviation":"CHC"},"location":"Wrigley Field"},{"id":"38156","date":"2017-06-02","time":"7:05PM","awayTeam":{"ID":"113","City":"Boston","Name":"Red Sox","Abbreviation":"BOS"},"homeTeam":{"ID":"111","City":"Baltimore","Name":"Orioles","Abbreviation":"BAL"},"location":"Oriole Park at Camden Yards"},{"id":"40001","date":"2017-06-02","time":"7:05PM","awayTeam":{"ID":"136","City":"San Francisco","Name":"Giants","Abbreviation":"SF"},"homeTeam":{"ID":"129","City":"Philadelphia","Name":"Phillies","Abbreviation":"PHI"},"location":"Citizens Bank Park"},{"id":"39879","date":"2017-06-02","time":"7:07PM","awayTeam":{"ID":"114","City":"New York","Name":"Yankees","Abbreviation":"NYY"},"homeTeam":{"ID":"112","City":"Toronto","Name":"Blue Jays","Abbreviation":"TOR"},"location":"Rogers Centre"},{"id":"37843","date":"2017-06-02","time":"7:10PM","awayTeam":{"ID":"140","City":"Arizona","Name":"Diamondbacks","Abbreviation":"ARI"},"homeTeam":{"ID":"128","City":"Miami","Name":"Marlins","Abbreviation":"MIA"},"location":"Marlins Park"},{"id":"38001","date":"2017-06-02","time":"7:10PM","awayTeam":{"ID":"130","City":"Atlanta","Name":"Braves","Abbreviation":"ATL"},"homeTeam":{"ID":"135","City":"Cincinnati","Name":"Reds","Abbreviation":"CIN"},"location":"Great American Ball Park"},{"id":"38970","date":"2017-06-02","time":"7:10PM","awayTeam":{"ID":"119","City":"Chicago","Name":"White Sox","Abbreviation":"CWS"},"homeTeam":{"ID":"117","City":"Detroit","Name":"Tigers","Abbreviation":"DET"},"location":"Comerica Park"},{"id":"39801","date":"2017-06-02","time":"7:10PM","awayTeam":{"ID":"132","City":"Pittsburgh","Name":"Pirates","Abbreviation":"PIT"},"homeTeam":{"ID":"127","City":"New York","Name":"Mets","Abbreviation":"NYM"},"location":"Citi Field"},{"id":"39194","date":"2017-06-02","time":"8:05PM","awayTeam":{"ID":"122","City":"Houston","Name":"Astros","Abbreviation":"HOU"},"homeTeam":{"ID":"121","City":"Texas","Name":"Rangers","Abbreviation":"TEX"},"location":"Globe Life Park"},{"id":"39492","date":"2017-06-02","time":"8:10PM","awayTeam":{"ID":"137","City":"Los Angeles","Name":"Dodgers","Abbreviation":"LAD"},"homeTeam":{"ID":"134","City":"Milwaukee","Name":"Brewers","Abbreviation":"MIL"},"location":"Miller Park"},{"id":"38721","date":"2017-06-02","time":"8:15PM","awayTeam":{"ID":"116","City":"Cleveland","Name":"Indians","Abbreviation":"CLE"},"homeTeam":{"ID":"118","City":"Kansas City","Name":"Royals","Abbreviation":"KC"},"location":"Kauffman Stadium"},{"id":"39937","date":"2017-06-02","time":"10:05PM","awayTeam":{"ID":"126","City":"Washington","Name":"Nationals","Abbreviation":"WAS"},"homeTeam":{"ID":"125","City":"Oakland","Name":"Athletics","Abbreviation":"OAK"},"location":"Oakland Coliseum"},{"id":"39395","date":"2017-06-02","time":"10:07PM","awayTeam":{"ID":"120","City":"Minnesota","Name":"Twins","Abbreviation":"MIN"},"homeTeam":{"ID":"124","City":"Los Angeles","Name":"Angels","Abbreviation":"LAA"},"location":"Angel Stadium of Anaheim"},{"id":"38858","date":"2017-06-02","time":"10:10PM","awayTeam":{"ID":"138","City":"Colorado","Name":"Rockies","Abbreviation":"COL"},"homeTeam":{"ID":"139","City":"San Diego","Name":"Padres","Abbreviation":"SD"},"location":"Petco Park"},{"id":"40126","date":"2017-06-02","time":"10:10PM","awayTeam":{"ID":"115","City":"Tampa Bay","Name":"Rays","Abbreviation":"TB"},"homeTeam":{"ID":"123","City":"Seattle","Name":"Mariners","Abbreviation":"SEA"},"location":"Safeco Field"},{"id":"39880","date":"2017-06-03","time":"1:07PM","awayTeam":{"ID":"114","City":"New York","Name":"Yankees","Abbreviation":"NYY"},"homeTeam":{"ID":"112","City":"Toronto","Name":"Blue Jays","Abbreviation":"TOR"},"location":"Rogers Centre"},{"id":"38722","date":"2017-06-03","time":"2:15PM","awayTeam":{"ID":"116","City":"Cleveland","Name":"Indians","Abbreviation":"CLE"},"homeTeam":{"ID":"118","City":"Kansas City","Name":"Royals","Abbreviation":"KC"},"location":"Kauffman Stadium"},{"id":"38457","date":"2017-06-03","time":"2:20PM","awayTeam":{"ID":"133","City":"St. Louis","Name":"Cardinals","Abbreviation":"STL"},"homeTeam":{"ID":"131","City":"Chicago","Name":"Cubs","Abbreviation":"CHC"},"location":"Wrigley Field"},{"id":"39938","date":"2017-06-03","time":"4:05PM","awayTeam":{"ID":"126","City":"Washington","Name":"Nationals","Abbreviation":"WAS"},"homeTeam":{"ID":"125","City":"Oakland","Name":"Athletics","Abbreviation":"OAK"},"location":"Oakland Coliseum"},{"id":"40002","date":"2017-06-03","time":"4:05PM","awayTeam":{"ID":"136","City":"San Francisco","Name":"Giants","Abbreviation":"SF"},"homeTeam":{"ID":"129","City":"Philadelphia","Name":"Phillies","Abbreviation":"PHI"},"location":"Citizens Bank Park"},{"id":"37844","date":"2017-06-03","time":"4:10PM","awayTeam":{"ID":"140","City":"Arizona","Name":"Diamondbacks","Abbreviation":"ARI"},"homeTeam":{"ID":"128","City":"Miami","Name":"Marlins","Abbreviation":"MIA"},"location":"Marlins Park"},{"id":"38002","date":"2017-06-03","time":"4:10PM","awayTeam":{"ID":"130","City":"Atlanta","Name":"Braves","Abbreviation":"ATL"},"homeTeam":{"ID":"135","City":"Cincinnati","Name":"Reds","Abbreviation":"CIN"},"location":"Great American Ball Park"},{"id":"38859","date":"2017-06-03","time":"4:10PM","awayTeam":{"ID":"138","City":"Colorado","Name":"Rockies","Abbreviation":"COL"},"homeTeam":{"ID":"139","City":"San Diego","Name":"Padres","Abbreviation":"SD"},"location":"Petco Park"},{"id":"38971","date":"2017-06-03","time":"4:10PM","awayTeam":{"ID":"119","City":"Chicago","Name":"White Sox","Abbreviation":"CWS"},"homeTeam":{"ID":"117","City":"Detroit","Name":"Tigers","Abbreviation":"DET"},"location":"Comerica Park"},{"id":"39493","date":"2017-06-03","time":"4:10PM","awayTeam":{"ID":"137","City":"Los Angeles","Name":"Dodgers","Abbreviation":"LAD"},"homeTeam":{"ID":"134","City":"Milwaukee","Name":"Brewers","Abbreviation":"MIL"},"location":"Miller Park"},{"id":"38157","date":"2017-06-03","time":"7:15PM","awayTeam":{"ID":"113","City":"Boston","Name":"Red Sox","Abbreviation":"BOS"},"homeTeam":{"ID":"111","City":"Baltimore","Name":"Orioles","Abbreviation":"BAL"},"location":"Oriole Park at Camden Yards"},{"id":"39195","date":"2017-06-03","time":"7:15PM","awayTeam":{"ID":"122","City":"Houston","Name":"Astros","Abbreviation":"HOU"},"homeTeam":{"ID":"121","City":"Texas","Name":"Rangers","Abbreviation":"TEX"},"location":"Globe Life Park"},{"id":"39802","date":"2017-06-03","time":"7:15PM","awayTeam":{"ID":"132","City":"Pittsburgh","Name":"Pirates","Abbreviation":"PIT"},"homeTeam":{"ID":"127","City":"New York","Name":"Mets","Abbreviation":"NYM"},"location":"Citi Field"},{"id":"39396","date":"2017-06-03","time":"10:07PM","awayTeam":{"ID":"120","City":"Minnesota","Name":"Twins","Abbreviation":"MIN"},"homeTeam":{"ID":"124","City":"Los Angeles","Name":"Angels","Abbreviation":"LAA"},"location":"Angel Stadium of Anaheim"},{"id":"40127","date":"2017-06-03","time":"10:10PM","awayTeam":{"ID":"115","City":"Tampa Bay","Name":"Rays","Abbreviation":"TB"},"homeTeam":{"ID":"123","City":"Seattle","Name":"Mariners","Abbreviation":"SEA"},"location":"Safeco Field"},{"id":"39881","date":"2017-06-04","time":"1:07PM","awayTeam":{"ID":"114","City":"New York","Name":"Yankees","Abbreviation":"NYY"},"homeTeam":{"ID":"112","City":"Toronto","Name":"Blue Jays","Abbreviation":"TOR"},"location":"Rogers Centre"},{"id":"37845","date":"2017-06-04","time":"1:10PM","awayTeam":{"ID":"140","City":"Arizona","Name":"Diamondbacks","Abbreviation":"ARI"},"homeTeam":{"ID":"128","City":"Miami","Name":"Marlins","Abbreviation":"MIA"},"location":"Marlins Park"},{"id":"38003","date":"2017-06-04","time":"1:10PM","awayTeam":{"ID":"130","City":"Atlanta","Name":"Braves","Abbreviation":"ATL"},"homeTeam":{"ID":"135","City":"Cincinnati","Name":"Reds","Abbreviation":"CIN"},"location":"Great American Ball Park"},{"id":"38972","date":"2017-06-04","time":"1:10PM","awayTeam":{"ID":"119","City":"Chicago","Name":"White Sox","Abbreviation":"CWS"},"homeTeam":{"ID":"117","City":"Detroit","Name":"Tigers","Abbreviation":"DET"},"location":"Comerica Park"},{"id":"39803","date":"2017-06-04","time":"1:10PM","awayTeam":{"ID":"132","City":"Pittsburgh","Name":"Pirates","Abbreviation":"PIT"},"homeTeam":{"ID":"127","City":"New York","Name":"Mets","Abbreviation":"NYM"},"location":"Citi Field"},{"id":"38158","date":"2017-06-04","time":"1:35PM","awayTeam":{"ID":"113","City":"Boston","Name":"Red Sox","Abbreviation":"BOS"},"homeTeam":{"ID":"111","City":"Baltimore","Name":"Orioles","Abbreviation":"BAL"},"location":"Oriole Park at Camden Yards"},{"id":"40003","date":"2017-06-04","time":"1:35PM","awayTeam":{"ID":"136","City":"San Francisco","Name":"Giants","Abbreviation":"SF"},"homeTeam":{"ID":"129","City":"Philadelphia","Name":"Phillies","Abbreviation":"PHI"},"location":"Citizens Bank Park"},{"id":"39494","date":"2017-06-04","time":"2:10PM","awayTeam":{"ID":"137","City":"Los Angeles","Name":"Dodgers","Abbreviation":"LAD"},"homeTeam":{"ID":"134","City":"Milwaukee","Name":"Brewers","Abbreviation":"MIL"},"location":"Miller Park"},{"id":"38723","date":"2017-06-04","time":"2:15PM","awayTeam":{"ID":"116","City":"Cleveland","Name":"Indians","Abbreviation":"CLE"},"homeTeam":{"ID":"118","City":"Kansas City","Name":"Royals","Abbreviation":"KC"},"location":"Kauffman Stadium"},{"id":"39196","date":"2017-06-04","time":"3:05PM","awayTeam":{"ID":"122","City":"Houston","Name":"Astros","Abbreviation":"HOU"},"homeTeam":{"ID":"121","City":"Texas","Name":"Rangers","Abbreviation":"TEX"},"location":"Globe Life Park"},{"id":"39397","date":"2017-06-04","time":"3:37PM","awayTeam":{"ID":"120","City":"Minnesota","Name":"Twins","Abbreviation":"MIN"},"homeTeam":{"ID":"124","City":"Los Angeles","Name":"Angels","Abbreviation":"LAA"},"location":"Angel Stadium of Anaheim"},{"id":"39939","date":"2017-06-04","time":"4:05PM","awayTeam":{"ID":"126","City":"Washington","Name":"Nationals","Abbreviation":"WAS"},"homeTeam":{"ID":"125","City":"Oakland","Name":"Athletics","Abbreviation":"OAK"},"location":"Oakland Coliseum"},{"id":"40128","date":"2017-06-04","time":"4:10PM","awayTeam":{"ID":"115","City":"Tampa Bay","Name":"Rays","Abbreviation":"TB"},"homeTeam":{"ID":"123","City":"Seattle","Name":"Mariners","Abbreviation":"SEA"},"location":"Safeco Field"},{"id":"38860","date":"2017-06-04","time":"4:40PM","awayTeam":{"ID":"138","City":"Colorado","Name":"Rockies","Abbreviation":"COL"},"homeTeam":{"ID":"139","City":"San Diego","Name":"Padres","Abbreviation":"SD"},"location":"Petco Park"},{"id":"38458","date":"2017-06-04","time":"7:35PM","awayTeam":{"ID":"133","City":"St. Louis","Name":"Cardinals","Abbreviation":"STL"},"homeTeam":{"ID":"131","City":"Chicago","Name":"Cubs","Abbreviation":"CHC"},"location":"Wrigley Field"},{"id":"38593","date":"2017-06-05","time":"7:10PM","awayTeam":{"ID":"133","City":"St. Louis","Name":"Cardinals","Abbreviation":"STL"},"homeTeam":{"ID":"135","City":"Cincinnati","Name":"Reds","Abbreviation":"CIN"},"location":"Great American Ball Park"},{"id":"38004","date":"2017-06-05","time":"7:35PM","awayTeam":{"ID":"129","City":"Philadelphia","Name":"Phillies","Abbreviation":"PHI"},"homeTeam":{"ID":"130","City":"Atlanta","Name":"Braves","Abbreviation":"ATL"},"location":"SunTrust Park"},{"id":"39675","date":"2017-06-05","time":"7:40PM","awayTeam":{"ID":"136","City":"San Francisco","Name":"Giants","Abbreviation":"SF"},"homeTeam":{"ID":"134","City":"Milwaukee","Name":"Brewers","Abbreviation":"MIL"},"location":"Miller Park"},{"id":"38459","date":"2017-06-05","time":"8:05PM","awayTeam":{"ID":"128","City":"Miami","Name":"Marlins","Abbreviation":"MIA"},"homeTeam":{"ID":"131","City":"Chicago","Name":"Cubs","Abbreviation":"CHC"},"location":"Wrigley Field"},{"id":"39197","date":"2017-06-05","time":"8:15PM","awayTeam":{"ID":"122","City":"Houston","Name":"Astros","Abbreviation":"HOU"},"homeTeam":{"ID":"118","City":"Kansas City","Name":"Royals","Abbreviation":"KC"},"location":"Kauffman Stadium"},{"id":"39940","date":"2017-06-05","time":"10:05PM","awayTeam":{"ID":"112","City":"Toronto","Name":"Blue Jays","Abbreviation":"TOR"},"homeTeam":{"ID":"125","City":"Oakland","Name":"Athletics","Abbreviation":"OAK"},"location":"Oakland Coliseum"},{"id":"39495","date":"2017-06-05","time":"10:10PM","awayTeam":{"ID":"126","City":"Washington","Name":"Nationals","Abbreviation":"WAS"},"homeTeam":{"ID":"137","City":"Los Angeles","Name":"Dodgers","Abbreviation":"LAD"},"location":"Dodger Stadium"}]}}