{"fullgameschedule":{"lastUpdatedOn":"2017-05-26 7:47:39 AM","gameentry":[{"id":"40741","date":"2017-06-01","time":"9:00PM","awayTeam":{"ID":"86","City":"Cleveland","Name":"Cavaliers","Abbreviation":"CLE"},"homeTeam":{"ID":"101","City":"Golden State","Name":"Warriors","Abbreviation":"GSW"},"location":"Oracle Arena"},{"id":"40742","date":"2017-06-04","time":"8:00PM","awayTeam":{"ID":"86","City":"Cleveland","Name":"Cavaliers","Abbreviation":"CLE"},"homeTeam":{"ID":"101","City":"Golden State","Name":"Warriors","Abbreviation":"GSW"},"location":"Oracle Arena"},{"id":"40743","date":"2017-06-07","time":"9:00PM","awayTeam":{"ID":"101","City":"Golden State","Name":"Warriors","Abbreviation":"GSW"},"homeTeam":{"ID":"86","City":"Cleveland","Name":"Cavaliers","Abbreviation":"CLE"},"location":"Quicken Loans Arena"},{"id":"40744","date":"2017-06-09","time":"9:00PM","awayTeam":{"ID":"101","City":"Golden State","Name":"Warriors","Abbreviation":"GSW"},"homeTeam":{"ID":"86","City":"Cleveland","Name":"Cavaliers","Abbreviation":"CLE"},"location":"Quicken Loans Arena"},{"id":"40745","date":"2017-06-12","time":"9:00PM","awayTeam":{"ID":"86","City":"Cleveland","Name":"Cavaliers","Abbreviation":"CLE"},"homeTeam":{"ID":"101","City":"Golden State","Name":"Warriors","Abbreviation":"GSW"},"location":"Oracle Arena"},{"id":"40746","date":"2017-06-15","time":"9:00PM","awayTeam":{"ID":"101","City":"Golden State","Name":"Warriors","Abbreviation":"GSW"},"homeTeam":{"ID":"86","City":"Cleveland","Name":"Cavaliers","Abbreviation":"CLE"},"location":"Quicken Loans Arena"},{"id":"40747","date":"2017-06-18","time":"8:00PM","awayTeam":{"ID":"86","City":"Cleveland","Name":"Cavaliers","Abbreviation":"CLE"},"homeTeam":{"ID":"101","City":"Golden State","Name":"Warriors","Abbreviation":"GSW"},"location":"Oracle Arena"}]}}