{"fullgameschedule":{"lastUpdatedOn":"2017-05-31 9:32:53 AM","gameentry":[{"id":"40735","date":"2017-05-31","time":"8:00PM","awayTeam":{"ID":"18","City":"Nashville","Name":"Predators","Abbreviation":"NSH"},"homeTeam":{"ID":"10","City":"Pittsburgh","Name":"Penguins","Abbreviation":"PIT"},"location":"Consol Energy Center"},{"id":"40736","date":"2017-06-03","time":"8:00PM","awayTeam":{"ID":"10","City":"Pittsburgh","Name":"Penguins","Abbreviation":"PIT"},"homeTeam":{"ID":"18","City":"Nashville","Name":"Predators","Abbreviation":"NSH"},"location":"Bridgestone Arena"},{"id":"40737","date":"2017-06-05","time":"8:00PM","awayTeam":{"ID":"10","City":"Pittsburgh","Name":"Penguins","Abbreviation":"PIT"},"homeTeam":{"ID":"18","City":"Nashville","Name":"Predators","Abbreviation":"NSH"},"location":"Bridgestone Arena"},{"id":"40738","date":"2017-06-08","time":"8:00PM","awayTeam":{"ID":"18","City":"Nashville","Name":"Predators","Abbreviation":"NSH"},"homeTeam":{"ID":"10","City":"Pittsburgh","Name":"Penguins","Abbreviation":"PIT"},"location":"Consol Energy Center"},{"id":"40739","date":"2017-06-11","time":"8:00PM","awayTeam":{"ID":"10","City":"Pittsburgh","Name":"Penguins","Abbreviation":"PIT"},"homeTeam":{"ID":"18","City":"Nashville","Name":"Predators","Abbreviation":"NSH"},"location":"Bridgestone Arena"},{"id":"40740","date":"2017-06-14","time":"8:00PM","awayTeam":{"ID":"18","City":"Nashville","Name":"Predators","Abbreviation":"NSH"},"homeTeam":{"ID":"10","City":"Pittsburgh","Name":"Penguins","Abbreviation":"PIT"},"location":"Consol Energy Center"}]}}